{
	"type": "FeatureCollection",
	"features": [
		{"type":"Feature","properties":{"id":"PORT_SHANGHAI","name":"Port of Shanghai","kind":"seaport","country":"China","iso3":"CHN","rank":1},"geometry":{"type":"Point","coordinates":[121.47,31.23]}},
		{"type":"Feature","properties":{"id":"PORT_SINGAPORE","name":"Port of Singapore","kind":"seaport","country":"Singapore","iso3":"SGP","rank":2},"geometry":{"type":"Point","coordinates":[103.85,1.29]}},
		{"type":"Feature","properties":{"id":"PORT_NINGBO","name":"Port of Ningbo-Zhoushan","kind":"seaport","country":"China","iso3":"CHN","rank":3},"geometry":{"type":"Point","coordinates":[121.6,29.9]}},
		{"type":"Feature","properties":{"id":"PORT_SHENZHEN","name":"Port of Shenzhen","kind":"seaport","country":"China","iso3":"CHN","rank":4},"geometry":{"type":"Point","coordinates":[114.1,22.6]}},
		{"type":"Feature","properties":{"id":"PORT_GUANGZHOU","name":"Port of Guangzhou (Nansha)","kind":"seaport","country":"China","iso3":"CHN","rank":5},"geometry":{"type":"Point","coordinates":[113.6,22.9]}},
		{"type":"Feature","properties":{"id":"PORT_HONGKONG","name":"Port of Hong Kong","kind":"seaport","country":"Hong Kong, China","iso3":"HKG","rank":6},"geometry":{"type":"Point","coordinates":[114.2,22.3]}},
		{"type":"Feature","properties":{"id":"PORT_BUSAN","name":"Port of Busan","kind":"seaport","country":"Korea, Rep.","iso3":"KOR","rank":7},"geometry":{"type":"Point","coordinates":[129.0,35.1]}},
		{"type":"Feature","properties":{"id":"PORT_QINGDAO","name":"Port of Qingdao","kind":"seaport","country":"China","iso3":"CHN","rank":8},"geometry":{"type":"Point","coordinates":[120.3,36.1]}},
		{"type":"Feature","properties":{"id":"PORT_TIANJIN","name":"Port of Tianjin","kind":"seaport","country":"China","iso3":"CHN","rank":9},"geometry":{"type":"Point","coordinates":[117.7,39.0]}},
		{"type":"Feature","properties":{"id":"PORT_JEBEL_ALI","name":"Port of Jebel Ali (Dubai)","kind":"seaport","country":"United Arab Emirates","iso3":"ARE","rank":10},"geometry":{"type":"Point","coordinates":[55.1,25.0]}},
		{"type":"Feature","properties":{"id":"PORT_ROTTERDAM","name":"Port of Rotterdam","kind":"seaport","country":"Netherlands","iso3":"NLD","rank":11},"geometry":{"type":"Point","coordinates":[4.5,51.9]}},
		{"type":"Feature","properties":{"id":"PORT_ANTWERP","name":"Port of Antwerp-Bruges","kind":"seaport","country":"Belgium","iso3":"BEL","rank":12},"geometry":{"type":"Point","coordinates":[4.4,51.2]}},
		{"type":"Feature","properties":{"id":"PORT_HAMBURG","name":"Port of Hamburg","kind":"seaport","country":"Germany","iso3":"DEU","rank":13},"geometry":{"type":"Point","coordinates":[10.0,53.5]}},
		{"type":"Feature","properties":{"id":"PORT_PIRAEUS","name":"Port of Piraeus","kind":"seaport","country":"Greece","iso3":"GRC","rank":14},"geometry":{"type":"Point","coordinates":[23.6,37.9]}},
		{"type":"Feature","properties":{"id":"PORT_VALENCIA","name":"Port of Valencia","kind":"seaport","country":"Spain","iso3":"ESP","rank":15},"geometry":{"type":"Point","coordinates":[-0.33,39.45]}},
		{"type":"Feature","properties":{"id":"PORT_ALGECIRAS","name":"Port of Algeciras","kind":"seaport","country":"Spain","iso3":"ESP","rank":16},"geometry":{"type":"Point","coordinates":[-5.45,36.13]}},
		{"type":"Feature","properties":{"id":"PORT_NY_NJ","name":"Port of New York and New Jersey","kind":"seaport","country":"United States","iso3":"USA","rank":17},"geometry":{"type":"Point","coordinates":[-74.0,40.7]}},
		{"type":"Feature","properties":{"id":"PORT_LA","name":"Port of Los Angeles","kind":"seaport","country":"United States","iso3":"USA","rank":18},"geometry":{"type":"Point","coordinates":[-118.27,33.73]}},
		{"type":"Feature","properties":{"id":"PORT_LONG_BEACH","name":"Port of Long Beach","kind":"seaport","country":"United States","iso3":"USA","rank":19},"geometry":{"type":"Point","coordinates":[-118.2,33.77]}},
		{"type":"Feature","properties":{"id":"PORT_SAVANNAH","name":"Port of Savannah","kind":"seaport","country":"United States","iso3":"USA","rank":20},"geometry":{"type":"Point","coordinates":[-81.1,32.1]}},
		{"type":"Feature","properties":{"id":"PORT_SANTOS","name":"Port of Santos","kind":"seaport","country":"Brazil","iso3":"BRA","rank":21},"geometry":{"type":"Point","coordinates":[-46.3,-23.9]}},
		{"type":"Feature","properties":{"id":"PORT_FELIXSTOWE","name":"Port of Felixstowe","kind":"seaport","country":"United Kingdom","iso3":"GBR","rank":22},"geometry":{"type":"Point","coordinates":[1.35,51.96]}},
		{"type":"Feature","properties":{"id":"PORT_PORT_KLANG","name":"Port Klang","kind":"seaport","country":"Malaysia","iso3":"MYS","rank":23},"geometry":{"type":"Point","coordinates":[101.4,3.0]}},
		{"type":"Feature","properties":{"id":"PORT_TANJUNG_PELEPAS","name":"Port of Tanjung Pelepas","kind":"seaport","country":"Malaysia","iso3":"MYS","rank":24},"geometry":{"type":"Point","coordinates":[103.55,1.37]}},
		{"type":"Feature","properties":{"id":"PORT_COLOMBO","name":"Port of Colombo","kind":"seaport","country":"Sri Lanka","iso3":"LKA","rank":25},"geometry":{"type":"Point","coordinates":[79.85,6.93]}},
		{"type":"Feature","properties":{"id":"PORT_XIAMEN","name":"Port of Xiamen","kind":"seaport","country":"China","iso3":"CHN","rank":26},"geometry":{"type":"Point","coordinates":[118.0845,24.5023]}},
		{"type":"Feature","properties":{"id":"PORT_KAOHSIUNG","name":"Port of Kaohsiung","kind":"seaport","country":"Taiwan","iso3":"TWN","rank":27},"geometry":{"type":"Point","coordinates":[120.173,22.3501]}},
		{"type":"Feature","properties":{"id":"PORT_LAEM_CHABANG","name":"Port of Laem Chabang","kind":"seaport","country":"Thailand","iso3":"THA","rank":28},"geometry":{"type":"Point","coordinates":[100.91,13.08]}},
		{"type":"Feature","properties":{"id":"PORT_HCMC","name":"Port of Ho Chi Minh City","kind":"seaport","country":"Vietnam","iso3":"VNM","rank":29},"geometry":{"type":"Point","coordinates":[106.7075,10.7683]}},
		{"type":"Feature","properties":{"id":"PORT_TAICANG","name":"Port of Taicang","kind":"seaport","country":"China","iso3":"CHN","rank":30},"geometry":{"type":"Point","coordinates":[121.1012,31.4576]}},
		{"type":"Feature","properties":{"id":"PORT_TANGER_MED","name":"Port of Tanger Med","kind":"seaport","country":"Morocco","iso3":"MAR","rank":31},"geometry":{"type":"Point","coordinates":[-5.5,35.87]}},
		{"type":"Feature","properties":{"id":"PORT_TANJUNG_PRIOK","name":"Port of Tanjung Priok","kind":"seaport","country":"Indonesia","iso3":"IDN","rank":32},"geometry":{"type":"Point","coordinates":[106.883,-6.104]}},
		{"type":"Feature","properties":{"id":"PORT_MUNDRA","name":"Port of Mundra","kind":"seaport","country":"India","iso3":"IND","rank":33},"geometry":{"type":"Point","coordinates":[69.705,22.729]}},
		{"type":"Feature","properties":{"id":"PORT_TANJUNG_PERAK","name":"Port of Tanjung Perak","kind":"seaport","country":"Indonesia","iso3":"IDN","rank":34},"geometry":{"type":"Point","coordinates":[112.736,-7.177]}},
		{"type":"Feature","properties":{"id":"PORT_JNPT","name":"Port of Jawaharlal Nehru (Nhava Sheva)","kind":"seaport","country":"India","iso3":"IND","rank":35},"geometry":{"type":"Point","coordinates":[72.946,18.954]}},
		{"type":"Feature","properties":{"id":"PORT_YINGKOU","name":"Port of Yingkou","kind":"seaport","country":"China","iso3":"CHN","rank":36},"geometry":{"type":"Point","coordinates":[122.18,40.29]}},
		{"type":"Feature","properties":{"id":"PORT_HAI_PHONG","name":"Port of Hai Phong","kind":"seaport","country":"Vietnam","iso3":"VNM","rank":37},"geometry":{"type":"Point","coordinates":[106.727,20.865]}},
		{"type":"Feature","properties":{"id":"PORT_RIZHAO","name":"Port of Rizhao","kind":"seaport","country":"China","iso3":"CHN","rank":38},"geometry":{"type":"Point","coordinates":[119.566,35.398]}},
		{"type":"Feature","properties":{"id":"PORT_LIANYUNGANG","name":"Port of Lianyungang","kind":"seaport","country":"China","iso3":"CHN","rank":39},"geometry":{"type":"Point","coordinates":[119.366,34.75]}},
		{"type":"Feature","properties":{"id":"PORT_BREMERHAVEN","name":"Port of Bremen/Bremerhaven","kind":"seaport","country":"Germany","iso3":"DEU","rank":40},"geometry":{"type":"Point","coordinates":[8.58,53.55]}},
		{"type":"Feature","properties":{"id":"PORT_JEDDAH","name":"Port of Jeddah","kind":"seaport","country":"Saudi Arabia","iso3":"SAU","rank":41},"geometry":{"type":"Point","coordinates":[39.17,21.48]}},
		{"type":"Feature","properties":{"id":"PORT_QINZHOU","name":"Port of Qinzhou","kind":"seaport","country":"China","iso3":"CHN","rank":42},"geometry":{"type":"Point","coordinates":[108.67,21.85]}},
		{"type":"Feature","properties":{"id":"PORT_SALALAH","name":"Port of Salalah","kind":"seaport","country":"Oman","iso3":"OMN","rank":43},"geometry":{"type":"Point","coordinates":[54.0,17.015]}},
		{"type":"Feature","properties":{"id":"PORT_COLON","name":"Port of Colón","kind":"seaport","country":"Panama","iso3":"PAN","rank":44},"geometry":{"type":"Point","coordinates":[-79.9,9.36]}},
		{"type":"Feature","properties":{"id":"PORT_MANILA","name":"Port of Manila","kind":"seaport","country":"Philippines","iso3":"PHL","rank":45},"geometry":{"type":"Point","coordinates":[120.95,14.6]}},
		{"type":"Feature","properties":{"id":"PORT_CAI_MEP","name":"Port of Cai Mep","kind":"seaport","country":"Vietnam","iso3":"VNM","rank":46},"geometry":{"type":"Point","coordinates":[107.0,10.5]}},
		{"type":"Feature","properties":{"id":"PORT_PORT_SAID","name":"Port of Port Said","kind":"seaport","country":"Egypt","iso3":"EGY","rank":47},"geometry":{"type":"Point","coordinates":[32.3,31.27]}},
		{"type":"Feature","properties":{"id":"PORT_VANCOUVER","name":"Port of Vancouver","kind":"seaport","country":"Canada","iso3":"CAN","rank":48},"geometry":{"type":"Point","coordinates":[-123.1,49.3]}},
		{"type":"Feature","properties":{"id":"PORT_DALIAN","name":"Port of Dalian","kind":"seaport","country":"China","iso3":"CHN","rank":49},"geometry":{"type":"Point","coordinates":[121.64,38.99]}},
		{"type":"Feature","properties":{"id":"PORT_FUZHOU","name":"Port of Fuzhou","kind":"seaport","country":"China","iso3":"CHN","rank":50},"geometry":{"type":"Point","coordinates":[119.769,25.995]}},
		{"type":"Feature","properties":{"id":"PORT_KARACHI","name":"Port of Karachi","kind":"seaport","country":"Pakistan","iso3":"PAK","rank":51},"geometry":{"type":"Point","coordinates":[66.982,24.835]}},
		{"type":"Feature","properties":{"id":"PORT_LAGOS","name":"Port of Lagos (Apapa)","kind":"seaport","country":"Nigeria","iso3":"NGA","rank":52},"geometry":{"type":"Point","coordinates":[3.367,6.45]}},
		{"type":"Feature","properties":{"id":"PORT_DURBAN","name":"Port of Durban","kind":"seaport","country":"South Africa","iso3":"ZAF","rank":53},"geometry":{"type":"Point","coordinates":[31.0245,-29.8732]}},
		{"type":"Feature","properties":{"id":"PORT_MOMBASA","name":"Port of Mombasa","kind":"seaport","country":"Kenya","iso3":"KEN","rank":54},"geometry":{"type":"Point","coordinates":[39.6519,-4.0553]}},
		{"type":"Feature","properties":{"id":"PORT_MELBOURNE","name":"Port of Melbourne","kind":"seaport","country":"Australia","iso3":"AUS","rank":55},"geometry":{"type":"Point","coordinates":[144.91,-37.84]}},
		{"type":"Feature","properties":{"id":"PORT_SEATTLE_TACOMA","name":"Port of Seattle-Tacoma","kind":"seaport","country":"United States","iso3":"USA","rank":56},"geometry":{"type":"Point","coordinates":[-122.4,47.4]}},
		{"type":"Feature","properties":{"id":"PORT_HOUSTON","name":"Port of Houston","kind":"seaport","country":"United States","iso3":"USA","rank":57},"geometry":{"type":"Point","coordinates":[-95.25,29.717]}},
		{"type":"Feature","properties":{"id":"PORT_NORFOLK","name":"Port of Norfolk (Virginia)","kind":"seaport","country":"United States","iso3":"USA","rank":58},"geometry":{"type":"Point","coordinates":[-76.33,36.92]}},
		{"type":"Feature","properties":{"id":"PORT_BALBOA","name":"Port of Balboa","kind":"seaport","country":"Panama","iso3":"PAN","rank":59},"geometry":{"type":"Point","coordinates":[-79.566,8.95]}},
		{"type":"Feature","properties":{"id":"PORT_YOKOHAMA","name":"Port of Yokohama","kind":"seaport","country":"Japan","iso3":"JPN","rank":60},"geometry":{"type":"Point","coordinates":[139.646,35.45]}},
		{"type":"Feature","properties":{"id":"PORT_GIOIA_TAURO","name":"Port of Gioia Tauro","kind":"seaport","country":"Italy","iso3":"ITA","rank":61},"geometry":{"type":"Point","coordinates":[15.8917,38.4433]}},
		{"type":"Feature","properties":{"id":"PORT_NAGOYA","name":"Port of Nagoya","kind":"seaport","country":"Japan","iso3":"JPN","rank":62},"geometry":{"type":"Point","coordinates":[136.88,35.08]}},
		{"type":"Feature","properties":{"id":"PORT_KHALIFA","name":"Khalifa Port (Abu Dhabi)","kind":"seaport","country":"United Arab Emirates","iso3":"ARE","rank":63},"geometry":{"type":"Point","coordinates":[54.6667,24.8333]}},
		{"type":"Feature","properties":{"id":"PORT_DJIBOUTI","name":"Port of Djibouti","kind":"seaport","country":"Djibouti","iso3":"DJI","rank":64},"geometry":{"type":"Point","coordinates":[43.1392,11.6053]}},
		{"type":"Feature","properties":{"id":"CANAL_SUEZ","name":"Suez Canal","kind":"canal","country":"Egypt","iso3":"EGY"},"geometry":{"type":"Point","coordinates":[32.34,30.72]}},
		{"type":"Feature","properties":{"id":"CANAL_PANAMA","name":"Panama Canal","kind":"canal","country":"Panama","iso3":"PAN"},"geometry":{"type":"Point","coordinates":[-79.75,9.12]}},
		{"type":"Feature","properties":{"id":"STRAIT_MALACCA","name":"Strait of Malacca","kind":"strait","country":"Malaysia","iso3":"MYS"},"geometry":{"type":"Point","coordinates":[101.04,2.83]}},
		{"type":"Feature","properties":{"id":"STRAIT_HORMUZ","name":"Strait of Hormuz","kind":"strait","country":"Oman","iso3":"OMN"},"geometry":{"type":"Point","coordinates":[56.5,26.6]}},
		{"type":"Feature","properties":{"id":"STRAIT_GIBRALTAR","name":"Strait of Gibraltar","kind":"strait","country":"Morocco","iso3":"MAR"},"geometry":{"type":"Point","coordinates":[-5.5,35.95]}},
		{"type":"Feature","properties":{"id":"STRAIT_BAB_EL_MANDEB","name":"Strait of Bab-el-Mandeb","kind":"strait","country":"Djibouti","iso3":"DJI"},"geometry":{"type":"Point","coordinates":[43.333,12.583]}},
		{"type":"Feature","properties":{"id":"CAPE_GOOD_HOPE","name":"Cape of Good Hope","kind":"cape","country":"South Africa","iso3":"ZAF"},"geometry":{"type":"Point","coordinates":[18.472,-34.357]}},

		{"type":"Feature","properties":{"id":"AIR_HKG","name":"Hong Kong International Airport","kind":"air_cargo","country":"Hong Kong, China","iso3":"HKG","iata":"HKG"},"geometry":{"type":"Point","coordinates":[113.93,22.31]}},
		{"type":"Feature","properties":{"id":"AIR_MEM","name":"Memphis International Airport","kind":"air_cargo","country":"United States","iso3":"USA","iata":"MEM"},"geometry":{"type":"Point","coordinates":[-89.98,35.04]}},
		{"type":"Feature","properties":{"id":"AIR_PVG","name":"Shanghai Pudong International Airport","kind":"air_cargo","country":"China","iso3":"CHN","iata":"PVG"},"geometry":{"type":"Point","coordinates":[121.8,31.15]}},
		{"type":"Feature","properties":{"id":"AIR_ICN","name":"Incheon International Airport","kind":"air_cargo","country":"Korea, Rep.","iso3":"KOR","iata":"ICN"},"geometry":{"type":"Point","coordinates":[126.45,37.46]}},
		{"type":"Feature","properties":{"id":"AIR_ANC","name":"Ted Stevens Anchorage International Airport","kind":"air_cargo","country":"United States","iso3":"USA","iata":"ANC"},"geometry":{"type":"Point","coordinates":[-149.99,61.17]}},
		{"type":"Feature","properties":{"id":"AIR_SDF","name":"Louisville Muhammad Ali International Airport","kind":"air_cargo","country":"United States","iso3":"USA","iata":"SDF"},"geometry":{"type":"Point","coordinates":[-85.74,38.18]}},
		{"type":"Feature","properties":{"id":"AIR_DOH","name":"Hamad International Airport","kind":"air_cargo","country":"Qatar","iso3":"QAT","iata":"DOH"},"geometry":{"type":"Point","coordinates":[51.61,25.27]}},
		{"type":"Feature","properties":{"id":"AIR_DXB","name":"Dubai International Airport","kind":"air_cargo","country":"United Arab Emirates","iso3":"ARE","iata":"DXB"},"geometry":{"type":"Point","coordinates":[55.36,25.25]}},
		{"type":"Feature","properties":{"id":"AIR_CVG","name":"Cincinnati/Northern Kentucky International Airport","kind":"air_cargo","country":"United States","iso3":"USA","iata":"CVG"},"geometry":{"type":"Point","coordinates":[-84.66,39.06]}},
		{"type":"Feature","properties":{"id":"AIR_FRA","name":"Frankfurt Airport","kind":"air_cargo","country":"Germany","iso3":"DEU","iata":"FRA"},"geometry":{"type":"Point","coordinates":[8.57,50.04]}},
		{"type":"Feature","properties":{"id":"AIR_MIA","name":"Miami International Airport","kind":"air_cargo","country":"United States","iso3":"USA","iata":"MIA"},"geometry":{"type":"Point","coordinates":[-80.29,25.793]}},
		{"type":"Feature","properties":{"id":"AIR_LAX","name":"Los Angeles International Airport","kind":"air_cargo","country":"United States","iso3":"USA","iata":"LAX"},"geometry":{"type":"Point","coordinates":[-118.408,33.942]}},
		{"type":"Feature","properties":{"id":"AIR_TPE","name":"Taipei Taoyuan International Airport","kind":"air_cargo","country":"Taiwan","iso3":"TWN","iata":"TPE"},"geometry":{"type":"Point","coordinates":[121.236,25.08]}},
		{"type":"Feature","properties":{"id":"AIR_CAN","name":"Guangzhou Baiyun International Airport","kind":"air_cargo","country":"China","iso3":"CHN","iata":"CAN"},"geometry":{"type":"Point","coordinates":[113.299,23.392]}},
		{"type":"Feature","properties":{"id":"AIR_NRT","name":"Tokyo Narita International Airport","kind":"air_cargo","country":"Japan","iso3":"JPN","iata":"NRT"},"geometry":{"type":"Point","coordinates":[140.392,35.771]}},
		{"type":"Feature","properties":{"id":"AIR_ORD","name":"Chicago O'Hare International Airport","kind":"air_cargo","country":"United States","iso3":"USA","iata":"ORD"},"geometry":{"type":"Point","coordinates":[-87.904,41.979]}},
		{"type":"Feature","properties":{"id":"AIR_CDG","name":"Paris Charles de Gaulle Airport","kind":"air_cargo","country":"France","iso3":"FRA","iata":"CDG"},"geometry":{"type":"Point","coordinates":[2.55,49.009]}},
		{"type":"Feature","properties":{"id":"AIR_SIN","name":"Singapore Changi Airport","kind":"air_cargo","country":"Singapore","iso3":"SGP","iata":"SIN"},"geometry":{"type":"Point","coordinates":[103.994,1.354]}},
		{"type":"Feature","properties":{"id":"AIR_IST","name":"Istanbul Airport","kind":"air_cargo","country":"Turkey","iso3":"TUR","iata":"IST"},"geometry":{"type":"Point","coordinates":[28.74,41.25]}},
		{"type":"Feature","properties":{"id":"AIR_SZX","name":"Shenzhen Bao'an International Airport","kind":"air_cargo","country":"China","iso3":"CHN","iata":"SZX"},"geometry":{"type":"Point","coordinates":[113.813,22.639]}},
		{"type":"Feature","properties":{"id":"AIR_JFK","name":"John F. Kennedy International Airport","kind":"air_cargo","country":"United States","iso3":"USA","iata":"JFK"},"geometry":{"type":"Point","coordinates":[-73.778,40.641]}},
		{"type":"Feature","properties":{"id":"AIR_LUX","name":"Luxembourg Findel Airport","kind":"air_cargo","country":"Luxembourg","iso3":"LUX","iata":"LUX"},"geometry":{"type":"Point","coordinates":[6.204,49.626]}},
		{"type":"Feature","properties":{"id":"AIR_CGN","name":"Cologne Bonn Airport","kind":"air_cargo","country":"Germany","iso3":"DEU","iata":"CGN"},"geometry":{"type":"Point","coordinates":[7.142,50.865]}},
		{"type":"Feature","properties":{"id":"AIR_CGO","name":"Zhengzhou Xinzheng International Airport","kind":"air_cargo","country":"China","iso3":"CHN","iata":"CGO"},"geometry":{"type":"Point","coordinates":[113.8408,34.5197]}},
		{"type":"Feature","properties":{"id":"AIR_LGG","name":"Liège Airport","kind":"air_cargo","country":"Belgium","iso3":"BEL","iata":"LGG"},"geometry":{"type":"Point","coordinates":[5.443,50.636]}},
		{"type":"Feature","properties":{"id":"AIR_KUL","name":"Kuala Lumpur International Airport","kind":"air_cargo","country":"Malaysia","iso3":"MYS","iata":"KUL"},"geometry":{"type":"Point","coordinates":[101.709,2.7456]}},
		{"type":"Feature","properties":{"id":"AIR_ATL","name":"Hartsfield–Jackson Atlanta International Airport","kind":"air_cargo","country":"United States","iso3":"USA","iata":"ATL"},"geometry":{"type":"Point","coordinates":[-84.4277,33.6407]}},
		{"type":"Feature","properties":{"id":"AIR_AMS","name":"Amsterdam Schiphol Airport","kind":"air_cargo","country":"Netherlands","iso3":"NLD","iata":"AMS"},"geometry":{"type":"Point","coordinates":[4.7639,52.3086]}},
		{"type":"Feature","properties":{"id":"AIR_LHR","name":"London Heathrow Airport","kind":"air_cargo","country":"United Kingdom","iso3":"GBR","iata":"LHR"},"geometry":{"type":"Point","coordinates":[-0.4543,51.47]}}
	]
}
