{
  "type": "FeatureCollection",
  "features": [
    {"type":"Feature","properties":{"id":"PORT_XIAMEN","name":"Port of Xiamen","kind":"seaport","country":"China","iso3":"CHN","rank":26},"geometry":{"type":"Point","coordinates":[118.0845,24.5023]}},
    {"type":"Feature","properties":{"id":"PORT_TANJUNG_PRIOK","name":"Port of Tanjung Priok","kind":"seaport","country":"Indonesia","iso3":"IDN","rank":27},"geometry":{"type":"Point","coordinates":[106.8865,-6.104]}},
    {"type":"Feature","properties":{"id":"PORT_HAI_PHONG","name":"Port of Hai Phong","kind":"seaport","country":"Vietnam","iso3":"VNM","rank":28},"geometry":{"type":"Point","coordinates":[106.683,20.867]}},
    {"type":"Feature","properties":{"id":"PORT_CAI_MEP","name":"Port of Cai Mep","kind":"seaport","country":"Vietnam","iso3":"VNM","rank":29},"geometry":{"type":"Point","coordinates":[107.0,10.535]}},
    {"type":"Feature","properties":{"id":"PORT_JAWAHARLAL_NEHRU","name":"Port of Jawaharlal Nehru","kind":"seaport","country":"India","iso3":"IND","rank":30},"geometry":{"type":"Point","coordinates":[72.95,18.95]}},
    {"type":"Feature","properties":{"id":"PORT_RIZHAO","name":"Port of Rizhao","kind":"seaport","country":"China","iso3":"CHN","rank":31},"geometry":{"type":"Point","coordinates":[119.5269,35.3618]}},
    {"type":"Feature","properties":{"id":"PORT_LIANYUNGANG","name":"Port of Lianyungang","kind":"seaport","country":"China","iso3":"CHN","rank":32},"geometry":{"type":"Point","coordinates":[119.5,34.78]}},
    {"type":"Feature","properties":{"id":"PORT_YINGKOU","name":"Port of Yingkou","kind":"seaport","country":"China","iso3":"CHN","rank":33},"geometry":{"type":"Point","coordinates":[122.267,40.7]}},
    {"type":"Feature","properties":{"id":"PORT_MANILA","name":"Port of Manila","kind":"seaport","country":"Philippines","iso3":"PHL","rank":34},"geometry":{"type":"Point","coordinates":[120.9544,14.5967]}},
    {"type":"Feature","properties":{"id":"PORT_ABU_DHABI","name":"Port of Abu Dhabi (Khalifa)","kind":"seaport","country":"United Arab Emirates","iso3":"ARE","rank":35},"geometry":{"type":"Point","coordinates":[54.6667,24.8333]}},
    {"type":"Feature","properties":{"id":"PORT_DALIAN","name":"Port of Dalian","kind":"seaport","country":"China","iso3":"CHN","rank":36},"geometry":{"type":"Point","coordinates":[121.65,38.95]}},
    {"type":"Feature","properties":{"id":"PORT_COLON","name":"Port of Colón","kind":"seaport","country":"Panama","iso3":"PAN","rank":37},"geometry":{"type":"Point","coordinates":[-79.9,9.36]}},
    {"type":"Feature","properties":{"id":"PORT_YANTAI","name":"Port of Yantai","kind":"seaport","country":"China","iso3":"CHN","rank":38},"geometry":{"type":"Point","coordinates":[121.39,37.52]}},
    {"type":"Feature","properties":{"id":"PORT_TOKYO","name":"Port of Tokyo","kind":"seaport","country":"Japan","iso3":"JPN","rank":39},"geometry":{"type":"Point","coordinates":[139.78,35.63]}},
    {"type":"Feature","properties":{"id":"PORT_BREMEN_BREMERHAVEN","name":"Port of Bremen–Bremerhaven","kind":"seaport","country":"Germany","iso3":"DEU","rank":40},"geometry":{"type":"Point","coordinates":[8.57,53.55]}},
    {"type":"Feature","properties":{"id":"PORT_TANJUNG_PERAK","name":"Port of Tanjung Perak","kind":"seaport","country":"Indonesia","iso3":"IDN","rank":41},"geometry":{"type":"Point","coordinates":[112.73,-7.17]}},
    {"type":"Feature","properties":{"id":"PORT_HOUSTON","name":"Port of Houston","kind":"seaport","country":"United States","iso3":"USA","rank":42},"geometry":{"type":"Point","coordinates":[-95.01,29.73]}},
    {"type":"Feature","properties":{"id":"PORT_DONGGUAN","name":"Port of Dongguan","kind":"seaport","country":"China","iso3":"CHN","rank":43},"geometry":{"type":"Point","coordinates":[113.63,23.05]}},
    {"type":"Feature","properties":{"id":"PORT_BALBOA","name":"Port of Balboa","kind":"seaport","country":"Panama","iso3":"PAN","rank":44},"geometry":{"type":"Point","coordinates":[-79.58,8.95]}},
    {"type":"Feature","properties":{"id":"PORT_TANGER_MED","name":"Port of Tanger-Med","kind":"seaport","country":"Morocco","iso3":"MAR","rank":45},"geometry":{"type":"Point","coordinates":[-5.5,35.89]}},
    {"type":"Feature","properties":{"id":"PORT_GIOIA_TAURO","name":"Port of Gioia Tauro","kind":"seaport","country":"Italy","iso3":"ITA","rank":46},"geometry":{"type":"Point","coordinates":[15.9044,38.4567]}},
    {"type":"Feature","properties":{"id":"PORT_PORT_SAID","name":"Port of Port Said","kind":"seaport","country":"Egypt","iso3":"EGY","rank":47},"geometry":{"type":"Point","coordinates":[32.3,31.26]}},
    {"type":"Feature","properties":{"id":"PORT_JEDDAH","name":"Port of Jeddah","kind":"seaport","country":"Saudi Arabia","iso3":"SAU","rank":48},"geometry":{"type":"Point","coordinates":[39.17,21.48]}},
    {"type":"Feature","properties":{"id":"PORT_SALALAH","name":"Port of Salalah","kind":"seaport","country":"Oman","iso3":"OMN","rank":49},"geometry":{"type":"Point","coordinates":[54.0,17.015]}},
    {"type":"Feature","properties":{"id":"PORT_DURBAN","name":"Port of Durban","kind":"seaport","country":"South Africa","iso3":"ZAF","rank":50},"geometry":{"type":"Point","coordinates":[31.0245,-29.8732]}},
    {"type":"Feature","properties":{"id":"PORT_SUEZ","name":"Port of Suez","kind":"seaport","country":"Egypt","iso3":"EGY","rank":51},"geometry":{"type":"Point","coordinates":[32.55,29.97]}},
    {"type":"Feature","properties":{"id":"PORT_MELBOURNE","name":"Port of Melbourne","kind":"seaport","country":"Australia","iso3":"AUS","rank":52},"geometry":{"type":"Point","coordinates":[144.93,-37.81]}},
    {"type":"Feature","properties":{"id":"PORT_LAGOS","name":"Port of Lagos (Apapa)","kind":"seaport","country":"Nigeria","iso3":"NGA","rank":53},"geometry":{"type":"Point","coordinates":[3.37,6.45]}},
    {"type":"Feature","properties":{"id":"PORT_SYDNEY","name":"Port of Sydney (Botany)","kind":"seaport","country":"Australia","iso3":"AUS","rank":54},"geometry":{"type":"Point","coordinates":[151.218,-33.976]}},
    {"type":"Feature","properties":{"id":"PORT_TAICANG","name":"Port of Taicang","kind":"seaport","country":"China","iso3":"CHN","rank":55},"geometry":{"type":"Point","coordinates":[121.1,31.46]}},
    {"type":"Feature","properties":{"id":"PORT_LAEM_CHABANG","name":"Port of Laem Chabang","kind":"seaport","country":"Thailand","iso3":"THA","rank":56},"geometry":{"type":"Point","coordinates":[100.89,13.09]}},
    {"type":"Feature","properties":{"id":"PORT_KAOHSIUNG","name":"Port of Kaohsiung","kind":"seaport","country":"Taiwan","iso3":"TWN","rank":57},"geometry":{"type":"Point","coordinates":[120.2792,22.6133]}},
    {"type":"Feature","properties":{"id":"PORT_HO_CHI_MINH","name":"Port of Ho Chi Minh City","kind":"seaport","country":"Vietnam","iso3":"VNM","rank":58},"geometry":{"type":"Point","coordinates":[106.67,10.774]}},
    {"type":"Feature","properties":{"id":"PORT_MUNDRA","name":"Port of Mundra","kind":"seaport","country":"India","iso3":"IND","rank":59},"geometry":{"type":"Point","coordinates":[69.7,22.75]}},
    {"type":"Feature","properties":{"id":"PORT_VANCOUVER","name":"Port of Vancouver","kind":"seaport","country":"Canada","iso3":"CAN","rank":60},"geometry":{"type":"Point","coordinates":[-123.1,49.3]}},
    {"type":"Feature","properties":{"id":"PORT_KARACHI","name":"Port of Karachi","kind":"seaport","country":"Pakistan","iso3":"PAK","rank":61},"geometry":{"type":"Point","coordinates":[66.99,24.84]}},
    {"type":"Feature","properties":{"id":"PORT_BANDAR_ABBAS","name":"Port of Bandar Abbas","kind":"seaport","country":"Iran","iso3":"IRN","rank":62},"geometry":{"type":"Point","coordinates":[56.27,27.17]}},
    {"type":"Feature","properties":{"id":"PORT_MANZANILLO","name":"Port of Manzanillo","kind":"seaport","country":"Mexico","iso3":"MEX","rank":63},"geometry":{"type":"Point","coordinates":[-104.32,19.06]}},
    {"type":"Feature","properties":{"id":"PORT_MARSAXLOKK","name":"Port of Marsaxlokk","kind":"seaport","country":"Malta","iso3":"MLT","rank":64},"geometry":{"type":"Point","coordinates":[14.54,35.82]}},
    {"type":"Feature","properties":{"id":"PORT_MOMBASA","name":"Port of Mombasa","kind":"seaport","country":"Kenya","iso3":"KEN","rank":65},"geometry":{"type":"Point","coordinates":[39.66,-4.06]}},
    {"type":"Feature","properties":{"id":"PORT_BARCELONA","name":"Port of Barcelona","kind":"seaport","country":"Spain","iso3":"ESP","rank":66},"geometry":{"type":"Point","coordinates":[2.17,41.35]}},
    {"type":"Feature","properties":{"id":"PORT_SEATTLE_TACOMA","name":"Port of Seattle–Tacoma","kind":"seaport","country":"United States","iso3":"USA","rank":67},"geometry":{"type":"Point","coordinates":[-122.33,47.6]}},
    {"type":"Feature","properties":{"id":"PORT_CHITTAGONG","name":"Port of Chittagong","kind":"seaport","country":"Bangladesh","iso3":"BGD","rank":68},"geometry":{"type":"Point","coordinates":[91.8,22.3]}},
    {"type":"Feature","properties":{"id":"PORT_NAGOYA","name":"Port of Nagoya","kind":"seaport","country":"Japan","iso3":"JPN","rank":69},"geometry":{"type":"Point","coordinates":[136.88,34.98]}},
    {"type":"Feature","properties":{"id":"PORT_KING_ABDULLAH","name":"King Abdullah Port","kind":"seaport","country":"Saudi Arabia","iso3":"SAU","rank":70},"geometry":{"type":"Point","coordinates":[39.1,22.5]}},
    {"type":"Feature","properties":{"id":"PORT_LE_HAVRE","name":"Port of Le Havre","kind":"seaport","country":"France","iso3":"FRA","rank":71},"geometry":{"type":"Point","coordinates":[0.1,49.48]}},

    {"type":"Feature","properties":{"id":"AIR_MIA","name":"Miami International Airport","kind":"air_cargo","country":"United States","iso3":"USA","iata":"MIA"},"geometry":{"type":"Point","coordinates":[-80.29,25.79]}},
    {"type":"Feature","properties":{"id":"AIR_CAN","name":"Guangzhou Baiyun International Airport","kind":"air_cargo","country":"China","iso3":"CHN","iata":"CAN"},"geometry":{"type":"Point","coordinates":[113.3,23.39]}},
    {"type":"Feature","properties":{"id":"AIR_TPE","name":"Taiwan Taoyuan International Airport","kind":"air_cargo","country":"Taiwan","iso3":"TWN","iata":"TPE"},"geometry":{"type":"Point","coordinates":[121.23,25.08]}},
    {"type":"Feature","properties":{"id":"AIR_LAX","name":"Los Angeles International Airport","kind":"air_cargo","country":"United States","iso3":"USA","iata":"LAX"},"geometry":{"type":"Point","coordinates":[-118.4085,33.9416]}},
    {"type":"Feature","properties":{"id":"AIR_CDG","name":"Paris Charles de Gaulle Airport","kind":"air_cargo","country":"France","iso3":"FRA","iata":"CDG"},"geometry":{"type":"Point","coordinates":[2.55,49.01]}},
    {"type":"Feature","properties":{"id":"AIR_AMS","name":"Amsterdam Schiphol Airport","kind":"air_cargo","country":"Netherlands","iso3":"NLD","iata":"AMS"},"geometry":{"type":"Point","coordinates":[4.76,52.31]}},
    {"type":"Feature","properties":{"id":"AIR_NRT","name":"Tokyo Narita International Airport","kind":"air_cargo","country":"Japan","iso3":"JPN","iata":"NRT"},"geometry":{"type":"Point","coordinates":[140.39,35.77]}},
    {"type":"Feature","properties":{"id":"AIR_ORD","name":"Chicago O'Hare International Airport","kind":"air_cargo","country":"United States","iso3":"USA","iata":"ORD"},"geometry":{"type":"Point","coordinates":[-87.9,41.98]}},
    {"type":"Feature","properties":{"id":"AIR_SIN","name":"Singapore Changi Airport","kind":"air_cargo","country":"Singapore","iso3":"SGP","iata":"SIN"},"geometry":{"type":"Point","coordinates":[103.99,1.36]}},
    {"type":"Feature","properties":{"id":"AIR_PEK","name":"Beijing Capital International Airport","kind":"air_cargo","country":"China","iso3":"CHN","iata":"PEK"},"geometry":{"type":"Point","coordinates":[116.59,40.08]}},
    {"type":"Feature","properties":{"id":"AIR_LEJ","name":"Leipzig/Halle Airport","kind":"air_cargo","country":"Germany","iso3":"DEU","iata":"LEJ"},"geometry":{"type":"Point","coordinates":[12.24,51.42]}},
    {"type":"Feature","properties":{"id":"AIR_LUX","name":"Luxembourg Findel Airport","kind":"air_cargo","country":"Luxembourg","iso3":"LUX","iata":"LUX"},"geometry":{"type":"Point","coordinates":[6.21,49.63]}}
  ]
}
